
{
"type": "FeatureCollection",
"crs": { "type": "name",
	"properties": { "name": "urn:ogc:def:crs:OGC:1.3:CRS84" } },
"features": [
	{ "type": "Feature", "id": 1, "properties": { "name": "Starbucks", "address": "1185 Avenue of the Americas", "borough": "Manhattan", "city": "New York", "state": "NY", "yelp_url": "http://www.yelp.com/biz/starbucks-manhattan-187", "outlets": "no" }, "geometry": { "type": "Point", "coordinates": [ -73.982353, 40.758034 ] } },
	{ "type": "Feature", "id": 2, "properties": { "name": "FedEx Office Print & Ship Center", "address": "1211 Avenue of the Americas", "borough": "Manhattan", "city": "New York", "state": "NY", "yelp_url": "http://www.yelp.com/biz/fedex-office-print-and-ship-center-new-york-7", "outlets": "no" }, "geometry": { "type": "Point", "coordinates": [ -73.982305, 40.758457 ] } },
	{ "type": "Feature", "id": 3, "properties": { "name": "New York Public Library", "address": "5th Avenue East 42nd Street", "borough": "Manhattan", "city": "New York", "state": "NY", "yelp_url": "http://www.yelp.com/biz/new-york-public-library-new-york-48", "outlets": "yes" }, "geometry": { "type": "Point", "coordinates": [ -73.982109, 40.753206 ] } },
	{ "type": "Feature", "id": 4, "properties": { "name": "South 4th Bar & Café", "address": "90 S 4th St", "borough": "Brooklyn", "city": "New York", "state": "NY", "yelp_url": "http://www.yelp.com/biz/south-4th-bar-and-caf%C3%A9-brooklyn-2", "outlets": "yes" }, "geometry": { "type": "Point", "coordinates": [ -73.964376, 40.712357 ] } },
	{ "type": "Feature", "id": 5, "properties": { "name": "Blu Cafe", "address": "120 Riverside Blvd", "borough": "Manhattan", "city": "New York", "state": "NY", "yelp_url": "http://www.yelp.com/biz/blu-cafe-new-york", "outlets": "yes" }, "geometry": { "type": "Point", "coordinates": [ -73.989146, 40.776691 ] } },
	{ "type": "Feature", "id": 6, "properties": { "name": "Think Coffee", "address": "248 Mercer St", "borough": "Manhattan", "city": "New York", "state": "NY", "yelp_url": "http://www.yelp.com/biz/think-coffee-new-york-2", "outlets": "yes" }, "geometry": { "type": "Point", "coordinates": [ -73.995336, 40.728299 ] } },
	{ "type": "Feature", "id": 7, "properties": { "name": "The Vagabond Cafe", "address": "7 Cornelia St", "borough": "Manhattan", "city": "New York", "state": "NY", "yelp_url": "http://www.yelp.com/biz/the-vagabond-cafe-new-york", "outlets": "yes" }, "geometry": { "type": "Point", "coordinates": [ -74.001859, 40.731641 ] } },
	{ "type": "Feature", "id": 8, "properties": { "name": "Gregory's Coffee", "address": "874 Avenue of the Americas", "borough": "Manhattan", "city": "New York", "state": "NY", "yelp_url": "http://www.yelp.com/biz/gregorys-coffee-new-york-5", "outlets": "yes" }, "geometry": { "type": "Point", "coordinates": [ -73.989058, 40.747724 ] } },
	{ "type": "Feature", "id": 9, "properties": { "name": "Supercore", "address": "305 Bedford Ave", "borough": "Brooklyn", "city": "New York", "state": "NY", "yelp_url": "http://www.yelp.com/biz/supercore-brooklyn", "outlets": "no" }, "geometry": { "type": "Point", "coordinates": [ -73.961809, 40.713515 ] } },
	{ "type": "Feature", "id": 10, "properties": { "name": "Gregory's Coffee", "address": "327 Park Ave S", "borough": "Mathattan", "city": "New York", "state": "NY", "yelp_url": "http://www.yelp.com/biz/gregorys-coffee-new-york", "outlets": "yes" }, "geometry": { "type": "Point", "coordinates": [ -73.985577, 40.74099 ] } },
	{ "type": "Feature", "id": 11, "properties": { "name": "The West", "address": "379 Union Ave", "borough": "Brooklyn", "city": "New York", "state": "NY", "yelp_url": "http://www.yelp.com/biz/the-west-brooklyn", "outlets": "yes" }, "geometry": { "type": "Point", "coordinates": [ -73.951443, 40.711811 ] } },
	{ "type": "Feature", "id": 12, "properties": { "name": "El Beit", "address": "158 Bedford Ave", "borough": "Brooklyn", "city": "New York", "state": "NY", "yelp_url": "http://www.yelp.com/biz/el-beit-brooklyn", "outlets": "yes" }, "geometry": { "type": "Point", "coordinates": [ -73.957114, 40.718706 ] } },
	{ "type": "Feature", "id": 13, "properties": { "name": "Eagle Trading", "address": "258 Franklin St", "borough": "Brooklyn", "city": "New York", "state": "NY", "yelp_url": "http://www.yelp.com/biz/eagle-trading-brooklyn", "outlets": "yes" }, "geometry": { "type": "Point", "coordinates": [ -73.958302, 40.734984 ] } },
	{ "type": "Feature", "id": 14, "properties": { "name": "Starbucks", "address": "494 8th Ave", "borough": "New York", "city": "New York", "state": "NY", "yelp_url": "http://www.yelp.com/biz/starbucks-new-york-144", "outlets": "no" }, "geometry": { "type": "Point", "coordinates": [ -73.992601, 40.752638 ] } },
	{ "type": "Feature", "id": 15, "properties": { "name": "AlleyNYC", "address": "500 7th Ave", "borough": "New York", "city": "New York", "state": "NY", "yelp_url": "http://www.yelp.com/biz/alleynyc-manhattan", "outlets": "no" }, "geometry": { "type": "Point", "coordinates": [ -73.989281, 40.753083 ] } },
	{ "type": "Feature", "id": 16, "properties": { "name": "Milk and Roses", "address": "1110 Manhattan Ave", "borough": "Brooklyn", "city": "New York", "state": "NY", "yelp_url": "http://www.yelp.com/biz/milk-and-roses-brooklyn", "outlets": "yes" }, "geometry": { "type": "Point", "coordinates": [ -73.954938, 40.736403 ] } },
	{ "type": "Feature", "id": 17, "properties": { "name": "Café Grumpy", "address": "193 Meserole Ave", "borough": "Brooklyn", "city": "New York", "state": "NY", "yelp_url": "http://www.yelp.com/biz/caf%C3%A9-grumpy-brooklyn-3", "outlets": "yes" }, "geometry": { "type": "Point", "coordinates": [ -73.948731, 40.728632 ] } },
	{ "type": "Feature", "id": 18, "properties": { "name": "Ace Hotel", "address": "20 W 29th St", "borough": "New York", "city": "New York", "state": "NY", "yelp_url": "http://www.yelp.com/biz/ace-hotel-new-york-new-york-2", "outlets": "yes" }, "geometry": { "type": "Point", "coordinates": [ -73.987942, 40.74559 ] } },
	{ "type": "Feature", "id": 19, "properties": { "name": "Hyatt Union Square New York", "address": "134 Fourth Ave", "borough": "New York", "city": "New York", "state": "NY", "yelp_url": "http://www.yelp.com/biz/hyatt-union-square-new-york-new-york", "outlets": "yes" }, "geometry": { "type": "Point", "coordinates": [ -73.989874, 40.733463 ] } },
	{ "type": "Feature", "id": 20, "properties": { "name": "Simon's Too", "address": "983 Mass Ave","city": "Cambridge", "state": "MA", "yelp_url": "http://www.yelp.com/biz/simons-too-cambridge", "outlets": "yes" }, "geometry": { "type": "Point", "coordinates": [ -71.10155, 42.373387 ] } }
]
}
